{"type": "FeatureCollection", "features": [{"type":"Feature","geometry":{"type":"Point","coordinates":[-73.84791,40.72111]},"properties":{"cartodb_id":1,"name":"7000 Austin Street","addresslines":"7000 Austin Street,Forest Hills, NY 11375","hours_open_per_week":108,"gc_status_rel":0.97,"has_lu":1,"has_cl":1,"has_wa":1,"has_vs":1,"zipcode":11375,"storenumber":"7217-623","revenue":1016898.4125579556,"carto_geocode_hash":"2d576a590508cca91deb041deeb010d0"}},{"type":"Feature","geometry":{"type":"Point","coordinates":[-73.84563,40.71873]},"properties":{"cartodb_id":2,"name":"107-12 Continental Avenue","addresslines":"107-12 Continental Avenue,Forest Hills, NY 11375","hours_open_per_week":116.5,"gc_status_rel":0.95,"has_lu":1,"has_cl":0,"has_wa":1,"has_vs":0,"zipcode":11375,"storenumber":"7349-910","revenue":447064.6235344879,"carto_geocode_hash":"98bcb148c9fbfc600eebd767c0b92dd1"}},{"type":"Feature","geometry":{"type":"Point","coordinates":[-73.85552,40.70676]},"properties":{"cartodb_id":3,"name":"Stop & Shop-Forest Hills #539","addresslines":"8989 Union Turnpike,Forest Hills, NY 11375","hours_open_per_week":112,"gc_status_rel":0.97,"has_lu":0,"has_cl":0,"has_wa":1,"has_vs":0,"zipcode":11375,"storenumber":"73708-104729","revenue":702807.074005489,"carto_geocode_hash":"bebcdc97f8a0dd3dfe28a189e31e375c"}},{"type":"Feature","geometry":{"type":"Point","coordinates":[-73.85276,40.72628]},"properties":{"cartodb_id":4,"name":"Queens Blvd & 67th Rd","addresslines":"10102 Queens Blvd.,Forest Hills, NY 11375","hours_open_per_week":114.5,"gc_status_rel":0.97,"has_lu":1,"has_cl":0,"has_wa":1,"has_vs":1,"zipcode":11375,"storenumber":"7897-82740","revenue":283190.753428042,"carto_geocode_hash":"086dd40c601c10ac33a699736e6ebb43"}},{"type":"Feature","geometry":{"type":"Point","coordinates":[-73.82636,40.71227]},"properties":{"cartodb_id":5,"name":"118-24 Queens Blvd","addresslines":"118-24 Queens Blvd,Kew Gardens, NY 11415","hours_open_per_week":114,"gc_status_rel":0.95,"has_lu":1,"has_cl":0,"has_wa":1,"has_vs":1,"zipcode":11415,"storenumber":"11933-106885","revenue":367299.3768412837,"carto_geocode_hash":"d466e0f677a96b2b4c8a5c428111c4c7"}},{"type":"Feature","geometry":{"type":"Point","coordinates":[-73.86977,40.70909]},"properties":{"cartodb_id":6,"name":"Shops at Atlas Park","addresslines":"8000 Cooper Avenue,Glendale, NY 11385","hours_open_per_week":111,"gc_status_rel":0.94,"has_lu":1,"has_cl":0,"has_wa":1,"has_vs":1,"zipcode":11385,"storenumber":"11812-106572","revenue":1467961.0825994622,"carto_geocode_hash":"42dea17d7adba052bbb8d0f26320b5fb"}},{"type":"Feature","geometry":{"type":"Point","coordinates":[-73.86326,40.72866]},"properties":{"cartodb_id":7,"name":"95-17 63rd Drive","addresslines":"95-17 63rd Drive,Rego Park, NY 11374","hours_open_per_week":114,"gc_status_rel":0.95,"has_lu":1,"has_cl":0,"has_wa":1,"has_vs":1,"zipcode":11374,"storenumber":"24165-236144","revenue":352642.09620003117,"carto_geocode_hash":"9c43f7ae5b4e915dbddff96a743b60c3"}},{"type":"Feature","geometry":{"type":"Point","coordinates":[-73.86756,40.74168]},"properties":{"cartodb_id":8,"name":"59-17 Junction Blvd","addresslines":"59-17 Junction Blvd,Elmhurst, NY 11373","hours_open_per_week":114.5,"gc_status_rel":0.91,"has_lu":1,"has_cl":0,"has_wa":1,"has_vs":0,"zipcode":11373,"storenumber":"57154-291133","revenue":601162.7798733397,"carto_geocode_hash":"8ecdc44bd22ca8914f4ec6d72361edd6"}},{"type":"Feature","geometry":{"type":"Point","coordinates":[-73.87844,40.73675]},"properties":{"cartodb_id":9,"name":"Queens Center Mall","addresslines":"90-15 Queens Boulevard,K203,Elmhurst, NY 11373","hours_open_per_week":89.5,"gc_status_rel":0.91,"has_lu":1,"has_cl":0,"has_wa":1,"has_vs":0,"zipcode":11373,"storenumber":"2787-35599","revenue":421596.08443307225,"carto_geocode_hash":"1445ade70b1e72925acc4989a66ae0e3"}},{"type":"Feature","geometry":{"type":"Point","coordinates":[-73.83619,40.70758]},"properties":{"cartodb_id":10,"name":"132-40 Metropolitan Ave","addresslines":"132-40 Metropolitan Ave,Richmond Hill, NY 11418","hours_open_per_week":112,"gc_status_rel":0.95,"has_lu":1,"has_cl":0,"has_wa":1,"has_vs":1,"zipcode":11418,"storenumber":"21514-211004","revenue":1192407.684206064,"carto_geocode_hash":"a60f88093d40faa5edbcfe44ff7879b0"}},{"type":"Feature","geometry":{"type":"Point","coordinates":[-73.87456,40.73531]},"properties":{"cartodb_id":11,"name":"Target Queens Place T-1344","addresslines":"8801 Queens Blvd,Elmhurst, NY 11373","hours_open_per_week":97,"gc_status_rel":0.94,"has_lu":0,"has_cl":0,"has_wa":1,"has_vs":0,"zipcode":11373,"storenumber":"13133-113948","revenue":347987.66243344045,"carto_geocode_hash":"bf8a1e2b45c9ce84b12f5962290f2904"}},{"type":"Feature","geometry":{"type":"Point","coordinates":[-73.88283,40.74289]},"properties":{"cartodb_id":12,"name":"Queens Blvd & Broadway","addresslines":"86-51 Broadway,Elmhurst, NY 11373","hours_open_per_week":112,"gc_status_rel":0.81,"has_lu":1,"has_cl":0,"has_wa":1,"has_vs":1,"zipcode":11373,"storenumber":"17202-177784","revenue":641696.8643285825,"carto_geocode_hash":"5460ee496cf6d5112d56a495814a9865"}},{"type":"Feature","geometry":{"type":"Point","coordinates":[-73.90443,40.72184]},"properties":{"cartodb_id":13,"name":"74-25 Grand Ave.-Shops at Grand","addresslines":"74-25 Grand Ave.,Maspeth, NY 11373","hours_open_per_week":113.5,"gc_status_rel":0.91,"has_lu":1,"has_cl":0,"has_wa":1,"has_vs":0,"zipcode":11373,"storenumber":"54304-286369","revenue":868580.8713327503,"carto_geocode_hash":"487746dcde068c8282502faa0904515c"}},{"type":"Feature","geometry":{"type":"Point","coordinates":[-73.80894,40.70347]},"properties":{"cartodb_id":14,"name":"89th Ave & Sutphin Blvd.","addresslines":"8900 Sutphin Blvd.,Jamaica, NY 11435","hours_open_per_week":102,"gc_status_rel":0.94,"has_lu":1,"has_cl":0,"has_wa":1,"has_vs":0,"zipcode":11435,"storenumber":"25685-242005","revenue":757363.3189982704,"carto_geocode_hash":"e97050537f488a15c834958173fb3661"}},{"type":"Feature","geometry":{"type":"Point","coordinates":[-73.82498,40.74034]},"properties":{"cartodb_id":15,"name":"New York Presbyterian Queens","addresslines":"56-45 MAIN STREET,FLUSHING, NY 11355","hours_open_per_week":100,"gc_status_rel":0.91,"has_lu":0,"has_cl":0,"has_wa":0,"has_vs":0,"zipcode":11355,"storenumber":"55519-278767","revenue":649156.2972838678,"carto_geocode_hash":"144c46228df7f134cc3c2115fb2e9c42"}},{"type":"Feature","geometry":{"type":"Point","coordinates":[-73.82612,40.66609]},"properties":{"cartodb_id":16,"name":"159-27 Jamaica Ave.","addresslines":"159-27 jamaica Ave.,Jamaica, NY 11432","hours_open_per_week":105,"gc_status_rel":0.92,"has_lu":1,"has_cl":0,"has_wa":1,"has_vs":0,"zipcode":11432,"storenumber":"48116-261453","revenue":1255314.965819716,"carto_geocode_hash":"c102164334f371ac0dff052e79cb9d13"}},{"type":"Feature","geometry":{"type":"Point","coordinates":[-73.79183,40.72572]},"properties":{"cartodb_id":17,"name":"St. John's University - Queens","addresslines":"8000 Utopia Pkwy,Jamaica, NY 11432","hours_open_per_week":105,"gc_status_rel":0.91,"has_lu":0,"has_cl":0,"has_wa":0,"has_vs":0,"zipcode":11432,"storenumber":"3928-138154","revenue":1401523.6864410006,"carto_geocode_hash":"7784574e72544f6ad30dc94c348feae5"}},{"type":"Feature","geometry":{"type":"Point","coordinates":[-73.88338,40.74985]},"properties":{"cartodb_id":18,"name":"78-25 37th Avenue","addresslines":"78-25 37th Avenue,Jackson Heights, NY 11372","hours_open_per_week":121.5,"gc_status_rel":0.95,"has_lu":1,"has_cl":0,"has_wa":1,"has_vs":0,"zipcode":11372,"storenumber":"14317-120366","revenue":259098.98357034032,"carto_geocode_hash":"473f1f97d8d735fa4bbccd9db77869ee"}},{"type":"Feature","geometry":{"type":"Point","coordinates":[-73.83416,40.75689]},"properties":{"cartodb_id":19,"name":"Target Flushing T-2451","addresslines":"40-24 College Point Blvd,Flushing, NY 11354","hours_open_per_week":87,"gc_status_rel":0.95,"has_lu":0,"has_cl":0,"has_wa":0,"has_vs":0,"zipcode":11354,"storenumber":"9077-145446","revenue":354387.31150303787,"carto_geocode_hash":"ce2e06b8c103d16720c4b6be671b34b3"}},{"type":"Feature","geometry":{"type":"Point","coordinates":[-73.83305,40.67289]},"properties":{"cartodb_id":20,"name":"Resorts World Casino New York City","addresslines":"11000 Rockaway Blvd,2nd Floor,Jamaica, NY 11420","hours_open_per_week":84,"gc_status_rel":0.94,"has_lu":0,"has_cl":0,"has_wa":0,"has_vs":0,"zipcode":11420,"storenumber":"24283-209146","revenue":810453.362725444,"carto_geocode_hash":"b1ec76fbdd149987a5b5954c535d32a0"}},{"type":"Feature","geometry":{"type":"Point","coordinates":[-73.9111,40.6999]},"properties":{"cartodb_id":21,"name":"329 Wyckoff Ave.","addresslines":"329 Wyckoff Ave.,Ridgewood, NY 11385","hours_open_per_week":110.5,"gc_status_rel":0.94,"has_lu":1,"has_cl":0,"has_wa":1,"has_vs":1,"zipcode":11385,"storenumber":"25040-239644","revenue":400604.3472698688,"carto_geocode_hash":"508ccaa580ec2f0adde7532aab98c2f1"}},{"type":"Feature","geometry":{"type":"Point","coordinates":[-73.83037,40.76075]},"properties":{"cartodb_id":22,"name":"3805 Main St","addresslines":"3805 Main St,Flushing, NY 11354","hours_open_per_week":115,"gc_status_rel":0.94,"has_lu":1,"has_cl":0,"has_wa":1,"has_vs":0,"zipcode":11354,"storenumber":"23593-231144","revenue":447177.0302173993,"carto_geocode_hash":"449c63680903d9628d374e9169aa2e4c"}},{"type":"Feature","geometry":{"type":"Point","coordinates":[-73.83926,40.65705]},"properties":{"cartodb_id":23,"name":"157-41 Cross Bay Blvd.","addresslines":"157-41 Cross Bay Blvd.,Howard Beach, NY 11414","hours_open_per_week":118.5,"gc_status_rel":0.96,"has_lu":1,"has_cl":0,"has_wa":1,"has_vs":1,"zipcode":11414,"storenumber":"7492-8546","revenue":1509897.078049439,"carto_geocode_hash":"101b307694118c7eb867151943486c56"}},{"type":"Feature","geometry":{"type":"Point","coordinates":[-73.78611,40.73896]},"properties":{"cartodb_id":24,"name":"188th Street & 64th Ave","addresslines":"61-51 188th Street,Fresh Meadows, NY 11365","hours_open_per_week":126,"gc_status_rel":0.95,"has_lu":1,"has_cl":0,"has_wa":1,"has_vs":1,"zipcode":11365,"storenumber":"7296-1042","revenue":539526.913141458,"carto_geocode_hash":"0645d36c0858e9760223fe17d9a5e0c2"}},{"type":"Feature","geometry":{"type":"Point","coordinates":[-73.91011,40.75276]},"properties":{"cartodb_id":25,"name":"Tower Square Shopping Center","addresslines":"51-06 Northern Blvd,Woodside, NY 11377","hours_open_per_week":113,"gc_status_rel":0.92,"has_lu":1,"has_cl":0,"has_wa":1,"has_vs":0,"zipcode":11377,"storenumber":"7910-87753","revenue":626907.578025289,"carto_geocode_hash":"85c48b3b39faa9be3019ee310f8f5e0a"}},{"type":"Feature","geometry":{"type":"Point","coordinates":[-73.92109,40.7436]},"properties":{"cartodb_id":26,"name":"46-09 Queens Blvd","addresslines":"46-09 Queens Blvd.,Sunnyside, NY 11104","hours_open_per_week":124.5,"gc_status_rel":0.91,"has_lu":1,"has_cl":0,"has_wa":1,"has_vs":1,"zipcode":11104,"storenumber":"11370-105177","revenue":326309.7641719441,"carto_geocode_hash":"c784f74439cf6e76d4385bf253bafa1b"}},{"type":"Feature","geometry":{"type":"Point","coordinates":[-73.87015,40.65315]},"properties":{"cartodb_id":27,"name":"Target Gateway T-1401","addresslines":"519 Gateway Dr,Brooklyn, NY 11239","hours_open_per_week":92,"gc_status_rel":0.94,"has_lu":0,"has_cl":0,"has_wa":0,"has_vs":0,"zipcode":11239,"storenumber":"15847-160724","revenue":446640.7741290967,"carto_geocode_hash":"543e64b8b6bc95e4cbdf6cce9a6c0a80"}},{"type":"Feature","geometry":{"type":"Point","coordinates":[-73.9095,40.77003]},"properties":{"cartodb_id":28,"name":"31-44 Steinway Street","addresslines":"31-44 Steinway Street,Astoria, NY 11103","hours_open_per_week":111,"gc_status_rel":0.91,"has_lu":1,"has_cl":0,"has_wa":1,"has_vs":1,"zipcode":11103,"storenumber":"7567-18640","revenue":523128.7120210821,"carto_geocode_hash":"2f0497554cc8d7a176de60a67a3546f4"}},{"type":"Feature","geometry":{"type":"Point","coordinates":[-73.92312,40.75593]},"properties":{"cartodb_id":29,"name":"35th Ave and 37th St","addresslines":"3711 35th Avenue,Astoria, NY 11101","hours_open_per_week":111,"gc_status_rel":0.94,"has_lu":1,"has_cl":1,"has_wa":1,"has_vs":0,"zipcode":11101,"storenumber":"9663-97893","revenue":319693.6605657929,"carto_geocode_hash":"e279232d650e33579126e9fab556c04c"}},{"type":"Feature","geometry":{"type":"Point","coordinates":[-73.94047,40.69984]},"properties":{"cartodb_id":30,"name":"774 Broadway","addresslines":"774 Broadway,Brooklyn, NY 11206","hours_open_per_week":95,"gc_status_rel":0.88,"has_lu":1,"has_cl":0,"has_wa":1,"has_vs":0,"zipcode":11206,"storenumber":"50622-275624","revenue":553990.5346826361,"carto_geocode_hash":"69b29ac8badd1280dcaa7340bb56e9e5"}},{"type":"Feature","geometry":{"type":"Point","coordinates":[-73.79243,40.76944]},"properties":{"cartodb_id":31,"name":"32-02 Francis Lewis Blvd.","addresslines":"32-02 Francis Lewis Blvd,Flushing, NY 11358","hours_open_per_week":114.5,"gc_status_rel":0.95,"has_lu":1,"has_cl":0,"has_wa":1,"has_vs":0,"zipcode":11358,"storenumber":"52530-281706","revenue":697120.2983871436,"carto_geocode_hash":"05b51f1102e1d655ed409e3cf221f6cf"}},{"type":"Feature","geometry":{"type":"Point","coordinates":[-73.95164,40.71261]},"properties":{"cartodb_id":32,"name":"Union Ave & Ainslie St","addresslines":"405-409 Union Avenue,Brooklyn, NY 11211","hours_open_per_week":105,"gc_status_rel":0.91,"has_lu":1,"has_cl":1,"has_wa":1,"has_vs":0,"zipcode":11211,"storenumber":"18858-191484","revenue":375371.39739152923,"carto_geocode_hash":"fd3b324acbf70eafa8c3ba6c3fb1a923"}},{"type":"Feature","geometry":{"type":"Point","coordinates":[-73.95141,40.72336]},"properties":{"cartodb_id":33,"name":"Nassau Ave & Lorimer St","addresslines":"66 Nassau Ave,Brooklyn, NY 11222","hours_open_per_week":105,"gc_status_rel":0.94,"has_lu":1,"has_cl":0,"has_wa":1,"has_vs":0,"zipcode":11222,"storenumber":"53880-284307","revenue":223633.52740412008,"carto_geocode_hash":"c5cfeee1db582b98459b5e779e801e17"}},{"type":"Feature","geometry":{"type":"Point","coordinates":[-73.76754,40.76054]},"properties":{"cartodb_id":34,"name":"215th St. & Northern Blvd","addresslines":"215-29 Northern Blvd.,Bayside, NY 11361","hours_open_per_week":116,"gc_status_rel":0.91,"has_lu":1,"has_cl":0,"has_wa":1,"has_vs":1,"zipcode":11361,"storenumber":"7391-1676","revenue":451687.6401132566,"carto_geocode_hash":"1bf4b87fd4fbce8796d5c37b33609f6b"}},{"type":"Feature","geometry":{"type":"Point","coordinates":[-73.76125,40.74729]},"properties":{"cartodb_id":35,"name":"221-04 Horace Harding Expwy.","addresslines":"221-04 A/B Horace Harding,Oakland Gardens, NY 11364","hours_open_per_week":112.5,"gc_status_rel":0.95,"has_lu":1,"has_cl":0,"has_wa":1,"has_vs":0,"zipcode":11364,"storenumber":"49196-267485","revenue":1467191.375179378,"carto_geocode_hash":"096f2c8d71be1ae5d3b801a9af5f1b78"}},{"type":"Feature","geometry":{"type":"Point","coordinates":[-73.78028,40.64581]},"properties":{"cartodb_id":36,"name":"JFK T8 North","addresslines":"JFK Airport,Jamaica, NY 11430","hours_open_per_week":122.5,"gc_status_rel":0.89,"has_lu":0,"has_cl":0,"has_wa":0,"has_vs":0,"zipcode":11430,"storenumber":"18646-191304","revenue":813977.1136466314,"carto_geocode_hash":"ddd4e1881e2fbeca22846d21f9531647"}},{"type":"Feature","geometry":{"type":"Point","coordinates":[-73.77604,40.78118]},"properties":{"cartodb_id":37,"name":"The Bay Terrace Shopping Center","addresslines":"23-88 Bell Boulevard,Bayside, NY 11360","hours_open_per_week":114,"gc_status_rel":0.91,"has_lu":1,"has_cl":0,"has_wa":1,"has_vs":0,"zipcode":11360,"storenumber":"54771-286750","revenue":423903.4734408697,"carto_geocode_hash":"470dc96060b10d27f56d7e316430aadb"}},{"type":"Feature","geometry":{"type":"Point","coordinates":[-73.73167,40.76033]},"properties":{"cartodb_id":38,"name":"254-21 Horace Harding Expressway","addresslines":"254-21 Horace Harding Expressway,Little Neck, NY 11362","hours_open_per_week":116.5,"gc_status_rel":0.97,"has_lu":1,"has_cl":0,"has_wa":1,"has_vs":1,"zipcode":11362,"storenumber":"14240-112064","revenue":717645.9777353317,"carto_geocode_hash":"a48cd55ebef70d6a3197f782c67b69b8"}},{"type":"Feature","geometry":{"type":"Point","coordinates":[-73.72675,40.78664]},"properties":{"cartodb_id":39,"name":"Great Neck - The Gardens","addresslines":"6 Great Neck Road,Great Neck, NY 11021","hours_open_per_week":106,"gc_status_rel":0.99,"has_lu":1,"has_cl":0,"has_wa":1,"has_vs":1,"zipcode":11021,"storenumber":"884-203464","revenue":329391.75040237384,"carto_geocode_hash":"592ce3f9b0f257eac52a0c660e2525d6"}},{"type":"Feature","geometry":{"type":"Point","coordinates":[-73.72644,40.72371]},"properties":{"cartodb_id":40,"name":"251-05 Jamaica Avenue","addresslines":"251-05 Jamaica Avenue,Bellerose, NY 11426","hours_open_per_week":112.5,"gc_status_rel":0.92,"has_lu":1,"has_cl":0,"has_wa":1,"has_vs":1,"zipcode":11426,"storenumber":"13450-106937","revenue":1669003.9402889204,"carto_geocode_hash":"df1dd2d41ab4af179f8b9c89684b132a"}},{"type":"Feature","geometry":{"type":"Point","coordinates":[-73.69858,40.74138]},"properties":{"cartodb_id":41,"name":"Stop & Shop-New Hyde Park #570","addresslines":"653 Hillside Ave,New Hyde Park, NY 11040","hours_open_per_week":105,"gc_status_rel":0.99,"has_lu":0,"has_cl":0,"has_wa":1,"has_vs":0,"zipcode":11040,"storenumber":"79421-96640","revenue":1757735.0325308626,"carto_geocode_hash":"0baf1751061ca06e34ee46c5264660c6"}},{"type":"Feature","geometry":{"type":"Point","coordinates":[-73.7044,40.70759]},"properties":{"cartodb_id":42,"name":"Target Elmont T-3237","addresslines":"1730 HEMPSTEAD TPK,Elmont, NY 11003","hours_open_per_week":84,"gc_status_rel":0.95,"has_lu":0,"has_cl":0,"has_wa":0,"has_vs":0,"zipcode":11003,"storenumber":"47681-259008","revenue":1100742.6782177498,"carto_geocode_hash":"763bfe1e720666b818d7a26102b9703c"}},{"type":"Feature","geometry":{"type":"Point","coordinates":[-73.7027,40.78824]},"properties":{"cartodb_id":43,"name":"Macy's-Manhasset #5","addresslines":"1100 Northern Blvd,Manhasset, NY 11030","hours_open_per_week":89.5,"gc_status_rel":0.95,"has_lu":1,"has_cl":0,"has_wa":1,"has_vs":0,"zipcode":11030,"storenumber":"17216-155505","revenue":1019605.7650571624,"carto_geocode_hash":"2ddf042fa08a3f8f9b08f73755b5dee7"}},{"type":"Feature","geometry":{"type":"Point","coordinates":[-73.688,40.75405]},"properties":{"cartodb_id":44,"name":"New Hyde Park","addresslines":"1596 Union Turnpike,New Hyde Park, NY 11040","hours_open_per_week":117.5,"gc_status_rel":0.98,"has_lu":1,"has_cl":0,"has_wa":1,"has_vs":1,"zipcode":11040,"storenumber":"7592-14132","revenue":2069927.6895250631,"carto_geocode_hash":"b4367f7bccb3ab31bba5f7176863cb48"}},{"type":"Feature","geometry":{"type":"Point","coordinates":[-73.69979,40.79769]},"properties":{"cartodb_id":45,"name":"Manhasset","addresslines":"375 Plandome Road,Manhasset, NY 11030","hours_open_per_week":115.5,"gc_status_rel":0.94,"has_lu":1,"has_cl":0,"has_wa":1,"has_vs":1,"zipcode":11030,"storenumber":"7246-553","revenue":2767537.9553087032,"carto_geocode_hash":"5269ea540d427679d2bc27c976831660"}},{"type":"Feature","geometry":{"type":"Point","coordinates":[-73.66093,40.70665]},"properties":{"cartodb_id":46,"name":"West Hempstead","addresslines":"580 Hempstead Turnpike,West Hempstead, NY 11552","hours_open_per_week":116.5,"gc_status_rel":0.97,"has_lu":1,"has_cl":0,"has_wa":1,"has_vs":0,"zipcode":11552,"storenumber":"29396-253406","revenue":1958310.7212021127,"carto_geocode_hash":"da8ea88b849c18838dcfe6afd9baeb3a"}},{"type":"Feature","geometry":{"type":"Point","coordinates":[-73.64065,40.74896]},"properties":{"cartodb_id":47,"name":"Mineola - 139 Jericho Tpke","addresslines":"139 jericho tpke,Mineola, NY 11501","hours_open_per_week":127,"gc_status_rel":0.95,"has_lu":1,"has_cl":0,"has_wa":1,"has_vs":0,"zipcode":11501,"storenumber":"55079-288372","revenue":910725.8314339336,"carto_geocode_hash":"2f098cb604cf9e550348d7be7edea735"}},{"type":"Feature","geometry":{"type":"Point","coordinates":[-73.65026,40.78027]},"properties":{"cartodb_id":48,"name":"Roslyn Heights","addresslines":"373 Willis Avenue,Roslyn Heights, NY 11577","hours_open_per_week":120.5,"gc_status_rel":0.97,"has_lu":1,"has_cl":0,"has_wa":1,"has_vs":1,"zipcode":11577,"storenumber":"7543-3408","revenue":2335485.8191583487,"carto_geocode_hash":"25b00b51823be3f9d046a17810b68508"}},{"type":"Feature","geometry":{"type":"Point","coordinates":[-73.63423,40.72502]},"properties":{"cartodb_id":49,"name":"7th Street at Garden City","addresslines":"184 7th St,Garden City, NY 11530","hours_open_per_week":118.5,"gc_status_rel":0.97,"has_lu":1,"has_cl":0,"has_wa":1,"has_vs":1,"zipcode":11530,"storenumber":"7627-20460","revenue":943085.7168193944,"carto_geocode_hash":"b0d35230273cb76835d4cc5f5476db13"}},{"type":"Feature","geometry":{"type":"Point","coordinates":[-73.72004,40.6646]},"properties":{"cartodb_id":50,"name":"Target Valley Stream T-2840","addresslines":"500 W. Sunrise Hwy,Valley Stream, NY 11581","hours_open_per_week":88,"gc_status_rel":0.99,"has_lu":1,"has_cl":0,"has_wa":1,"has_vs":0,"zipcode":11581,"storenumber":"18578-192502","revenue":1188261.9773093702,"carto_geocode_hash":"e3c9a8dc0a9cd0f38ccbc12aa310b910"}},{"type":"Feature","geometry":{"type":"Point","coordinates":[-73.61951,40.7569]},"properties":{"cartodb_id":51,"name":"Village of Westbury","addresslines":"379 Glen Cove Road,Westbury, NY 11590","hours_open_per_week":118.5,"gc_status_rel":0.97,"has_lu":1,"has_cl":0,"has_wa":1,"has_vs":1,"zipcode":11590,"storenumber":"7624-31063","revenue":3070541.9714342086,"carto_geocode_hash":"921ef4b2f2a5132859c5cdde57eda2c1"}},{"type":"Feature","geometry":{"type":"Point","coordinates":[-73.61299,40.73824]},"properties":{"cartodb_id":52,"name":"Roosevelt Field Mall-Lower Level","addresslines":"630 Old Country Rd,Garden City, NY 11530","hours_open_per_week":90,"gc_status_rel":0.99,"has_lu":1,"has_cl":0,"has_wa":1,"has_vs":0,"zipcode":11530,"storenumber":"7746-54939","revenue":1429509.6691074318,"carto_geocode_hash":"d6fb3c0d927b039e4643521b75c03c16"}},{"type":"Feature","geometry":{"type":"Point","coordinates":[-73.68847,40.83042]},"properties":{"cartodb_id":53,"name":"Port Washington","addresslines":"72 Main Street,Port Washington, NY 11050","hours_open_per_week":108,"gc_status_rel":0.97,"has_lu":1,"has_cl":0,"has_wa":1,"has_vs":1,"zipcode":11050,"storenumber":"7203-550","revenue":790354.3451924745,"carto_geocode_hash":"d3a73486377fe3b088628fddabfa33bd"}},{"type":"Feature","geometry":{"type":"Point","coordinates":[-73.6835,40.65642]},"properties":{"cartodb_id":54,"name":"Lynbrook-Sunrise Hwy.","addresslines":"839 Sunrise HWY,Lynbrook, NY 11563","hours_open_per_week":109.5,"gc_status_rel":0.95,"has_lu":1,"has_cl":0,"has_wa":1,"has_vs":1,"zipcode":11563,"storenumber":"7413-249445","revenue":840783.8068466488,"carto_geocode_hash":"4508b519ff805908e2adbbe27f152866"}},{"type":"Feature","geometry":{"type":"Point","coordinates":[-73.70139,40.83792]},"properties":{"cartodb_id":55,"name":"Stop & Shop-Port Washington #546","addresslines":"65 Shore Road,Port Washington, NY 11050","hours_open_per_week":111.5,"gc_status_rel":0.97,"has_lu":0,"has_cl":0,"has_wa":1,"has_vs":0,"zipcode":11050,"storenumber":"72573-104042","revenue":760474.4275372535,"carto_geocode_hash":"b6cbb306e9c08640041fdfb2a70398d6"}},{"type":"Feature","geometry":{"type":"Point","coordinates":[-73.70339,40.64484]},"properties":{"cartodb_id":56,"name":"Hewlett-Peninsula Blvd.","addresslines":"1336 Peninsula Blvd.,Hewlett, NY 11557","hours_open_per_week":110.5,"gc_status_rel":0.95,"has_lu":1,"has_cl":0,"has_wa":1,"has_vs":0,"zipcode":11557,"storenumber":"7395-273764","revenue":1248084.190217296,"carto_geocode_hash":"f6b60804da8c72a8918965a34745485c"}},{"type":"Feature","geometry":{"type":"Point","coordinates":[-73.62736,40.80969]},"properties":{"cartodb_id":57,"name":"Wheatly Plaza-Greenvale","addresslines":"132 Wheatley Plaza,Greenvale, NY 11548","hours_open_per_week":106.5,"gc_status_rel":0.95,"has_lu":1,"has_cl":0,"has_wa":1,"has_vs":1,"zipcode":11548,"storenumber":"7331-918","revenue":1347329.670333277,"carto_geocode_hash":"2af7acce7874cdb4f5dd1c855e9fb4cb"}},{"type":"Feature","geometry":{"type":"Point","coordinates":[-73.64505,40.65689]},"properties":{"cartodb_id":58,"name":"Rockville Center","addresslines":"21 North Park Ave,Rockville Center, NY 11570","hours_open_per_week":107,"gc_status_rel":0.99,"has_lu":1,"has_cl":1,"has_wa":1,"has_vs":1,"zipcode":11570,"storenumber":"7494-8547","revenue":846018.9219055837,"carto_geocode_hash":"58ddaefdce1b0ec61b5b4eecd1c261b3"}},{"type":"Feature","geometry":{"type":"Point","coordinates":[-73.60405,40.71369]},"properties":{"cartodb_id":59,"name":"Hofstra University-Student Center","addresslines":"1000 Fulton Avenue,Hemstead, NY 11550","hours_open_per_week":92.5,"gc_status_rel":0.95,"has_lu":1,"has_cl":0,"has_wa":1,"has_vs":0,"zipcode":11550,"storenumber":"47121-209144","revenue":1155188.3921512412,"carto_geocode_hash":"568de1ddbcf7cc3c25a989f85c33f2dc"}},{"type":"Feature","geometry":{"type":"Point","coordinates":[-73.63896,40.64451]},"properties":{"cartodb_id":60,"name":"Oceanside-Long Beach Rd.","addresslines":"2755 Long Beach Rd.,Oceanside, NY 11572","hours_open_per_week":119,"gc_status_rel":0.97,"has_lu":1,"has_cl":0,"has_wa":1,"has_vs":1,"zipcode":11572,"storenumber":"25937-242946","revenue":1678985.3181695018,"carto_geocode_hash":"eb60c0e51711d5a175b3d4a741d62de6"}},{"type":"Feature","geometry":{"type":"Point","coordinates":[-73.73601,40.62624]},"properties":{"cartodb_id":61,"name":"Rockaway Tpke  Cedarhurst","addresslines":"316 Rockaway Turnpike, Cedarhurst, NY 11516","hours_open_per_week":107,"gc_status_rel":0.95,"has_lu":0,"has_cl":0,"has_wa":0,"has_vs":0,"zipcode":11516,"storenumber":"11536-104610","revenue":2164807.088639228,"carto_geocode_hash":"540f68ac438915f11312052bbc2e613d"}},{"type":"Feature","geometry":{"type":"Point","coordinates":[-73.58967,40.71889]},"properties":{"cartodb_id":62,"name":"Uniondale","addresslines":"1228 Hempstead Turnpike,Uniondale, NY 11553","hours_open_per_week":122.5,"gc_status_rel":0.95,"has_lu":1,"has_cl":0,"has_wa":1,"has_vs":0,"zipcode":11553,"storenumber":"7247-758","revenue":1474186.6987288538,"carto_geocode_hash":"02a0d5351c12e69887abee0174ac63b3"}},{"type":"Feature","geometry":{"type":"Point","coordinates":[-73.61316,40.65618]},"properties":{"cartodb_id":63,"name":"Baldwin-Sunrise Hwy.","addresslines":"610 Sunrise Hwy.,Baldwin, NY 11510","hours_open_per_week":117,"gc_status_rel":0.95,"has_lu":1,"has_cl":0,"has_wa":1,"has_vs":0,"zipcode":11510,"storenumber":"27861-248930","revenue":1040299.7580360395,"carto_geocode_hash":"dd5a368dae770739ca06200fd51b57c0"}},{"type":"Feature","geometry":{"type":"Point","coordinates":[-73.60783,40.6397]},"properties":{"cartodb_id":64,"name":"Stop & Shop - Baldwin Harbor #452","addresslines":"905 Atlantic Avenue,Baldwin Harbor, NY 11510","hours_open_per_week":98,"gc_status_rel":0.95,"has_lu":0,"has_cl":0,"has_wa":1,"has_vs":0,"zipcode":11510,"storenumber":"73906-133727","revenue":1287338.8746843934,"carto_geocode_hash":"952153416bf8f296b4e5fd641f3b97ab"}},{"type":"Feature","geometry":{"type":"Point","coordinates":[-73.5935,40.65599]},"properties":{"cartodb_id":65,"name":"Target Freeport T-3236","addresslines":"248 SUNRISE HWY,Freeport, NY 11520","hours_open_per_week":84,"gc_status_rel":0.95,"has_lu":0,"has_cl":0,"has_wa":1,"has_vs":0,"zipcode":11520,"storenumber":"47676-259007","revenue":660955.7896186172,"carto_geocode_hash":"c565cb3107a726d33e0231ce9bfb832c"}},{"type":"Feature","geometry":{"type":"Point","coordinates":[-73.54972,40.65673]},"properties":{"cartodb_id":66,"name":"Merrick","addresslines":"2015 Merrick Road,Merrick, NY 11566","hours_open_per_week":118,"gc_status_rel":0.95,"has_lu":1,"has_cl":0,"has_wa":1,"has_vs":1,"zipcode":11566,"storenumber":"7302-555","revenue":2424840.021682776,"carto_geocode_hash":"20a4eace7c1cca37d0b1d758fd656333"}},{"type":"Feature","geometry":{"type":"Point","coordinates":[-73.55701,40.6765]},"properties":{"cartodb_id":67,"name":"North Merrick","addresslines":"1713 Merrick Avenue,North Merrick, NY 11566","hours_open_per_week":119,"gc_status_rel":0.97,"has_lu":1,"has_cl":0,"has_wa":1,"has_vs":1,"zipcode":11566,"storenumber":"13587-107917","revenue":2751025.086246156,"carto_geocode_hash":"a9fb6833aea81d8e0ba7e39aa1018a50"}},{"type":"Feature","geometry":{"type":"Point","coordinates":[-73.65413,40.60001]},"properties":{"cartodb_id":68,"name":"Island Park","addresslines":"4507 Austin Blvd,Island Park, NY 11558","hours_open_per_week":114,"gc_status_rel":0.97,"has_lu":1,"has_cl":0,"has_wa":1,"has_vs":0,"zipcode":11558,"storenumber":"8840-95307","revenue":1458484.8123643098,"carto_geocode_hash":"10fc4b30926019893cd97cc58f8a7692"}},{"type":"Feature","geometry":{"type":"Point","coordinates":[-73.66717,40.58887]},"properties":{"cartodb_id":69,"name":"Long Beach","addresslines":"101 West Park Avenue,Long Beach, NY 11561","hours_open_per_week":113,"gc_status_rel":0.99,"has_lu":1,"has_cl":0,"has_wa":1,"has_vs":1,"zipcode":11561,"storenumber":"7425-1903","revenue":684910.5821601981,"carto_geocode_hash":"197e6f566902447f1dfcbdd3c24f2eb2"}},{"type":"Feature","geometry":{"type":"Point","coordinates":[-73.66193,40.58932]},"properties":{"cartodb_id":70,"name":"Stop & Shop - Long Beach #2582","addresslines":"85 E Park Ave,Long Beach, NY 11561","hours_open_per_week":98,"gc_status_rel":0.99,"has_lu":0,"has_cl":0,"has_wa":0,"has_vs":0,"zipcode":11561,"storenumber":"73937-135227","revenue":453132.3900318466,"carto_geocode_hash":"4e95596d0704455655db105aaf19357b"}},{"type":"Feature","geometry":{"type":"Point","coordinates":[-73.55779,40.72469]},"properties":{"cartodb_id":71,"name":"East Meadow-Hempstead Tpke.","addresslines":"2148 Hempstead Tpke.,East Meadow, NY 11554","hours_open_per_week":120,"gc_status_rel":0.97,"has_lu":1,"has_cl":0,"has_wa":1,"has_vs":0,"zipcode":11554,"storenumber":"27104-246826","revenue":2950747.188852922,"carto_geocode_hash":"8c6b1ceb7f0c4d0d9676be21ca02d510"}},{"type":"Feature","geometry":{"type":"Point","coordinates":[-73.50649,40.69448]},"properties":{"cartodb_id":72,"name":"Wantagh","addresslines":"1143 Wantagh Avenue,Wantagh, NY 11793","hours_open_per_week":127,"gc_status_rel":0.95,"has_lu":1,"has_cl":0,"has_wa":1,"has_vs":1,"zipcode":11793,"storenumber":"16303-158164","revenue":1227019.5402898341,"carto_geocode_hash":"ccec7ad95aa570fb086d3b9a07a000ad"}},{"type":"Feature","geometry":{"type":"Point","coordinates":[-73.53597,40.72474]},"properties":{"cartodb_id":73,"name":"Levittown 2 - Hempstead Tpke","addresslines":"2693 Hempstead Tpke,Levittown, NY 11756","hours_open_per_week":122,"gc_status_rel":0.95,"has_lu":1,"has_cl":0,"has_wa":1,"has_vs":0,"zipcode":11756,"storenumber":"18569-180188","revenue":1898921.435145899,"carto_geocode_hash":"e466aff9366c9f85ac9a25080fa1b7d3"}},{"type":"Feature","geometry":{"type":"Point","coordinates":[-73.48921,40.67435]},"properties":{"cartodb_id":74,"name":"Seaford-Sunrise Hwy.","addresslines":"3870 Sunrise Hwy,Seaford, NY 11783","hours_open_per_week":121,"gc_status_rel":0.95,"has_lu":1,"has_cl":0,"has_wa":1,"has_vs":0,"zipcode":11783,"storenumber":"48856-261871","revenue":2574391.463665436,"carto_geocode_hash":"c81fda42f57a4aedfc4077b45b39279a"}},{"type":"Feature","geometry":{"type":"Point","coordinates":[-73.47488,40.66699]},"properties":{"cartodb_id":75,"name":"Massapequa Village Square","addresslines":"4301 Merrick Road,Massapequa, NY 11758","hours_open_per_week":124,"gc_status_rel":0.95,"has_lu":1,"has_cl":0,"has_wa":1,"has_vs":1,"zipcode":11758,"storenumber":"7307-1088","revenue":2652946.421373013,"carto_geocode_hash":"85c7132c431ba568292d4c37d133a3a5"}},{"type":"Feature","geometry":{"type":"Point","coordinates":[-73.51648,40.72534]},"properties":{"cartodb_id":76,"name":"Levittown - Hempstead Tpke.","addresslines":"3240 Hempstead Tpke,Levittown, NY 11756","hours_open_per_week":106.5,"gc_status_rel":0.95,"has_lu":1,"has_cl":0,"has_wa":1,"has_vs":1,"zipcode":11756,"storenumber":"9308-96185","revenue":1695235.7446716428,"carto_geocode_hash":"18cda703c5ea5d88f505c53f5d588f17"}},{"type":"Feature","geometry":{"type":"Point","coordinates":[-73.49404,40.72471]},"properties":{"cartodb_id":77,"name":"Target Levittown T-1264","addresslines":"3850 Hempstead Tpke,Levittown, NY 11756","hours_open_per_week":86,"gc_status_rel":0.95,"has_lu":0,"has_cl":0,"has_wa":1,"has_vs":0,"zipcode":11756,"storenumber":"15619-162724","revenue":1582473.8333623281,"carto_geocode_hash":"a4bd11de4276a8305cb43342cd8ce25f"}},{"type":"Feature","geometry":{"type":"Point","coordinates":[-73.48283,40.72637]},"properties":{"cartodb_id":78,"name":"Bethpage  Stewart Avenue","addresslines":"205 Stewart Ave, Bethpage, NY 11714","hours_open_per_week":121,"gc_status_rel":0.94,"has_lu":0,"has_cl":0,"has_wa":0,"has_vs":0,"zipcode":11714,"storenumber":"2782-91102","revenue":2367070.439930166,"carto_geocode_hash":"db83e451622a1fb13561633e92a7c005"}},{"type":"Feature","geometry":{"type":"Point","coordinates":[-73.52706,40.76245]},"properties":{"cartodb_id":79,"name":"Hicksville","addresslines":"180 W Old Country Road,Hicksville, NY 11801","hours_open_per_week":116.5,"gc_status_rel":0.99,"has_lu":1,"has_cl":0,"has_wa":1,"has_vs":1,"zipcode":11801,"storenumber":"14784-131067","revenue":784699.3186644829,"carto_geocode_hash":"626fa18e0596d25c1fbc729fd8c49feb"}},{"type":"Feature","geometry":{"type":"Point","coordinates":[-73.41765,40.67908]},"properties":{"cartodb_id":80,"name":"Amityville- Broadway","addresslines":"803 Broadway,200,Amityville, NY 11701","hours_open_per_week":117.5,"gc_status_rel":0.9,"has_lu":1,"has_cl":0,"has_wa":1,"has_vs":1,"zipcode":11701,"storenumber":"24309-237007","revenue":1139940.8088474986,"carto_geocode_hash":"3f3d7fc76356b1d7ba7aad171f85ce63"}},{"type":"Feature","geometry":{"type":"Point","coordinates":[-73.40658,40.66729]},"properties":{"cartodb_id":81,"name":"Stop & Shop-Amityville #550","addresslines":"351 Merrick Rd,Amityville, NY 11701","hours_open_per_week":98,"gc_status_rel":0.95,"has_lu":0,"has_cl":0,"has_wa":1,"has_vs":0,"zipcode":11701,"storenumber":"79470-97520","revenue":1321001.5457611992,"carto_geocode_hash":"2ebf75532b37a595be32ea275443a668"}},{"type":"Feature","geometry":{"type":"Point","coordinates":[-73.40603,40.6879]},"properties":{"cartodb_id":82,"name":"Target Copiague T-1147","addresslines":"1149 Sunrise Hwy,Copiague, NY 11726","hours_open_per_week":86,"gc_status_rel":0.95,"has_lu":0,"has_cl":0,"has_wa":0,"has_vs":0,"zipcode":11726,"storenumber":"20102-145447","revenue":1513894.2741378762,"carto_geocode_hash":"518c4aaa67b1d2372003a3b0f5316adb"}},{"type":"Feature","geometry":{"type":"Point","coordinates":[-73.44282,40.73513]},"properties":{"cartodb_id":83,"name":"The Plaza at Farmingdale Train","addresslines":"121 Secatogue Ave,Farmingdale, NY 11735","hours_open_per_week":106.5,"gc_status_rel":0.94,"has_lu":0,"has_cl":0,"has_wa":1,"has_vs":0,"zipcode":11735,"storenumber":"27338-238540","revenue":1230072.7531136626,"carto_geocode_hash":"1af3777061177b7cd1e44353fd5203ba"}},{"type":"Feature","geometry":{"type":"Point","coordinates":[-73.42572,40.72772]},"properties":{"cartodb_id":84,"name":"Farmingdale","addresslines":"10 Michael Ave,Farmingdale, NY 11735","hours_open_per_week":132,"gc_status_rel":0.95,"has_lu":1,"has_cl":0,"has_wa":1,"has_vs":1,"zipcode":11735,"storenumber":"7397-1675","revenue":2558895.2349221455,"carto_geocode_hash":"1010b0234df647d057ec77ac30ae0342"}},{"type":"Feature","geometry":{"type":"Point","coordinates":[-73.38218,40.71495]},"properties":{"cartodb_id":85,"name":"West Babylon-Rte. 109","addresslines":"677 Route 109,West Babylon, NY 11704","hours_open_per_week":119.5,"gc_status_rel":0.97,"has_lu":1,"has_cl":0,"has_wa":1,"has_vs":0,"zipcode":11704,"storenumber":"48342-261872","revenue":2326558.029926041,"carto_geocode_hash":"a56444a54949d7ba50af012cad8ce53f"}},{"type":"Feature","geometry":{"type":"Point","coordinates":[-73.42095,40.7492]},"properties":{"cartodb_id":86,"name":"North Farmingdale","addresslines":"2015 Broad Hollow Rd.,Farmingdale, NY 11735","hours_open_per_week":115,"gc_status_rel":0.96,"has_lu":1,"has_cl":0,"has_wa":1,"has_vs":0,"zipcode":11735,"storenumber":"27040-246505","revenue":2440242.482891315,"carto_geocode_hash":"37465b9947276ab0dd6ed0bfc05ec838"}},{"type":"Feature","geometry":{"type":"Point","coordinates":[-73.36196,40.71078]},"properties":{"cartodb_id":87,"name":"Stop & Shop-Babylon #543","addresslines":"88 Golding Avenue,Babylon, NY 11704","hours_open_per_week":98,"gc_status_rel":0.95,"has_lu":0,"has_cl":0,"has_wa":1,"has_vs":0,"zipcode":11704,"storenumber":"79465-104047","revenue":1995238.983862161,"carto_geocode_hash":"ea0a54521b3b711a3f12e22a34cf09f6"}},{"type":"Feature","geometry":{"type":"Point","coordinates":[-73.45216,40.77961]},"properties":{"cartodb_id":88,"name":"Plainview - Country Pointe","addresslines":"1411 Old Country Road,Plainview, NY 11803","hours_open_per_week":104,"gc_status_rel":0.97,"has_lu":1,"has_cl":0,"has_wa":1,"has_vs":1,"zipcode":11803,"storenumber":"52535-282384","revenue":2492752.7179576703,"carto_geocode_hash":"56cf3d88efb7e88a2f628f279177edfa"}},{"type":"Feature","geometry":{"type":"Point","coordinates":[-73.50263,40.78358]},"properties":{"cartodb_id":89,"name":"Plainview Centre","addresslines":"399 South Oyster Bay Road,Plainview, NY 11803","hours_open_per_week":122,"gc_status_rel":0.99,"has_lu":1,"has_cl":0,"has_wa":1,"has_vs":1,"zipcode":11803,"storenumber":"842-2053","revenue":2303303.870014155,"carto_geocode_hash":"41676c71615f4e5923c322deb9e5f8c1"}},{"type":"Feature","geometry":{"type":"Point","coordinates":[-73.34061,40.68856]},"properties":{"cartodb_id":90,"name":"West Babylon","addresslines":"519 Montauk Highway,West Babylon, NY 11704","hours_open_per_week":114.5,"gc_status_rel":0.97,"has_lu":1,"has_cl":0,"has_wa":1,"has_vs":1,"zipcode":11704,"storenumber":"9846-98601","revenue":1792182.223748893,"carto_geocode_hash":"45040e93069f7a3b4b1c82a9e8a18da3"}},{"type":"Feature","geometry":{"type":"Point","coordinates":[-73.53473,40.78919]},"properties":{"cartodb_id":91,"name":"Jericho","addresslines":"475 North Broadway,Jericho, NY 11753","hours_open_per_week":116,"gc_status_rel":0.95,"has_lu":1,"has_cl":1,"has_wa":1,"has_vs":1,"zipcode":11753,"storenumber":"7235-643","revenue":4257652.107751035,"carto_geocode_hash":"1554eb1472636682095cfec8500e34e3"}},{"type":"Feature","geometry":{"type":"Point","coordinates":[-73.41618,40.79076]},"properties":{"cartodb_id":92,"name":"Melville","addresslines":"64 Broad Hollow Road,Melville, NY 11747","hours_open_per_week":110.5,"gc_status_rel":0.96,"has_lu":1,"has_cl":0,"has_wa":1,"has_vs":1,"zipcode":11747,"storenumber":"7576-18559","revenue":2041940.9429972125,"carto_geocode_hash":"450b661328d9c6614a41ee1571f02120"}},{"type":"Feature","geometry":{"type":"Point","coordinates":[-73.50125,40.80993]},"properties":{"cartodb_id":93,"name":"Syosset- South Oyster Bay","addresslines":"390 Jericho Turnpike,Unit B,Syosset, NY 11791","hours_open_per_week":109,"gc_status_rel":0.95,"has_lu":1,"has_cl":0,"has_wa":1,"has_vs":1,"zipcode":11791,"storenumber":"7728-62680","revenue":3551329.6254332536,"carto_geocode_hash":"78c49cf4da21ec1a3e45c6f8dfe08e4b"}},{"type":"Feature","geometry":{"type":"Point","coordinates":[-73.32226,40.73659]},"properties":{"cartodb_id":94,"name":"North Babylon","addresslines":"1238 Deer Park Ave,North Babylon, NY 11703","hours_open_per_week":124.5,"gc_status_rel":0.99,"has_lu":1,"has_cl":0,"has_wa":1,"has_vs":1,"zipcode":11703,"storenumber":"16421-157664","revenue":2546153.0795887457,"carto_geocode_hash":"a8cb3257bb0183a098cec8411c1a2c22"}},{"type":"Feature","geometry":{"type":"Point","coordinates":[-73.47649,40.81568]},"properties":{"cartodb_id":95,"name":"Woodbury  Village","addresslines":"7963 Jericho Turnpike,Woodbury, NY 11797","hours_open_per_week":117.5,"gc_status_rel":0.95,"has_lu":1,"has_cl":0,"has_wa":1,"has_vs":1,"zipcode":11797,"storenumber":"7220-158624","revenue":1020381.052328708,"carto_geocode_hash":"a7573983f6261d100078673e44fcfa0b"}},{"type":"Feature","geometry":{"type":"Point","coordinates":[-73.40937,40.81303]},"properties":{"cartodb_id":96,"name":"North Melville","addresslines":"488 Walt Whitman Rd,Melville, NY 11747","hours_open_per_week":112,"gc_status_rel":0.97,"has_lu":1,"has_cl":0,"has_wa":1,"has_vs":0,"zipcode":11747,"storenumber":"21980-216607","revenue":2470401.913013485,"carto_geocode_hash":"67b4c610283e79f237bf3fc0bc224c25"}},{"type":"Feature","geometry":{"type":"Point","coordinates":[-73.31071,40.76732]},"properties":{"cartodb_id":97,"name":"Deer Park-Commack Rd.","addresslines":"512 Commack Rd.,Deer Park, NY 11729","hours_open_per_week":109.5,"gc_status_rel":0.97,"has_lu":1,"has_cl":0,"has_wa":1,"has_vs":1,"zipcode":11729,"storenumber":"26498-244384","revenue":2471810.719975837,"carto_geocode_hash":"331fe3427228e3c58aa5d63b89a8dc46"}},{"type":"Feature","geometry":{"type":"Point","coordinates":[-73.30452,40.7653]},"properties":{"cartodb_id":98,"name":"Tanger Outlets Deer Park","addresslines":"529 The Arches Circle,Deer Park, NY 11729","hours_open_per_week":89,"gc_status_rel":0.99,"has_lu":1,"has_cl":0,"has_wa":1,"has_vs":1,"zipcode":11729,"storenumber":"14368-112365","revenue":1925042.8558811026,"carto_geocode_hash":"402d2651d2420b29e9f26b8a6fc1032d"}},{"type":"Feature","geometry":{"type":"Point","coordinates":[-73.40979,40.82289]},"properties":{"cartodb_id":99,"name":"Walt Whitman Shops-Center Court","addresslines":"160 Walt Whitman Road,tbd,Huntington Station, NY 11746","hours_open_per_week":89.5,"gc_status_rel":0.98,"has_lu":1,"has_cl":0,"has_wa":1,"has_vs":1,"zipcode":11746,"storenumber":"7722-194184","revenue":2154194.685409661,"carto_geocode_hash":"9ff1b35f670457cf5b1250cacc83d46b"}},{"type":"Feature","geometry":{"type":"Point","coordinates":[-73.27671,40.72646]},"properties":{"cartodb_id":100,"name":"Target Bay Shore T-1148","addresslines":"838 Sunrise Hwy,Bay Shore, NY 11706","hours_open_per_week":91,"gc_status_rel":0.97,"has_lu":0,"has_cl":0,"has_wa":0,"has_vs":0,"zipcode":11706,"storenumber":"15413-156964","revenue":2708955.344010821,"carto_geocode_hash":"97963d8f63ea0682467269e946e76e8d"}},{"type":"Feature","geometry":{"type":"Point","coordinates":[-73.40786,40.82784]},"properties":{"cartodb_id":101,"name":"Target Huntington T-2844","addresslines":"124 E Jericho Turnpike,Huntington, NY 11746","hours_open_per_week":84,"gc_status_rel":0.97,"has_lu":0,"has_cl":0,"has_wa":1,"has_vs":0,"zipcode":11746,"storenumber":"20765-207753","revenue":2343326.6277637263,"carto_geocode_hash":"a44af4c60a6e0e176fb80cf5aa3e4809"}},{"type":"Feature","geometry":{"type":"Point","coordinates":[-73.29414,40.81094]},"properties":{"cartodb_id":102,"name":"Commack Rd.  Henry St.","addresslines":"668 Commack Rd, Commack, NY 11725","hours_open_per_week":94,"gc_status_rel":0.95,"has_lu":0,"has_cl":0,"has_wa":0,"has_vs":0,"zipcode":11725,"storenumber":"28759-251047","revenue":3070351.1952304104,"carto_geocode_hash":"0bd809dd75450dae8b31633ba9772589"}},{"type":"Feature","geometry":{"type":"Point","coordinates":[-73.24332,40.73643]},"properties":{"cartodb_id":103,"name":"Macys South Shore Mall","addresslines":"1702 Sunrise Hwy,Bay Shore, NY 11706","hours_open_per_week":70,"gc_status_rel":0.97,"has_lu":0,"has_cl":0,"has_wa":0,"has_vs":0,"zipcode":11706,"storenumber":"19833-188585","revenue":1936099.0721003718,"carto_geocode_hash":"5753c9cb98495da1c031e66c789c06d6"}},{"type":"Feature","geometry":{"type":"Point","coordinates":[-73.32393,40.83944]},"properties":{"cartodb_id":104,"name":"East Northport  Rte. 25","addresslines":"3011 Jericho Tpke. East Northport, NY 11731","hours_open_per_week":133,"gc_status_rel":0.97,"has_lu":0,"has_cl":0,"has_wa":0,"has_vs":0,"zipcode":11731,"storenumber":"10045-99397","revenue":3128136.7895562,"carto_geocode_hash":"00ac7b39a4753c025177c65a309f88c9"}},{"type":"Feature","geometry":{"type":"Point","coordinates":[-73.28691,40.83902]},"properties":{"cartodb_id":105,"name":"Target Commack T-1108","addresslines":"98 Veterans Memorial Hwy,Commack, NY 11725","hours_open_per_week":86,"gc_status_rel":0.97,"has_lu":0,"has_cl":0,"has_wa":1,"has_vs":0,"zipcode":11725,"storenumber":"15620-162704","revenue":2063888.375231924,"carto_geocode_hash":"599ac887894b5cd8e061a28c88770e3b"}},{"type":"Feature","geometry":{"type":"Point","coordinates":[-73.2749,40.84528]},"properties":{"cartodb_id":106,"name":"Jericho Tpke  Commack","addresslines":"2055A Jericho Tpke Commack, NY 11725","hours_open_per_week":78,"gc_status_rel":0.92,"has_lu":0,"has_cl":0,"has_wa":0,"has_vs":0,"zipcode":11725,"storenumber":"11811-104574","revenue":1885181.27250812,"carto_geocode_hash":"ff10765374d9444f1d52cd5f8aae7257"}},{"type":"Feature","geometry":{"type":"Point","coordinates":[-73.32125,40.86385]},"properties":{"cartodb_id":107,"name":"E. Northport  Larkfield Rd","addresslines":"506 Larkfield Rd, East Northport, NY 11731","hours_open_per_week":118,"gc_status_rel":0.97,"has_lu":0,"has_cl":0,"has_wa":0,"has_vs":0,"zipcode":11731,"storenumber":"10329-100400","revenue":2633167.379208095,"carto_geocode_hash":"bdd72e5773bfdea8e1bdf981066ed60a"}},{"type":"Feature","geometry":{"type":"Point","coordinates":[-73.21493,40.72923]},"properties":{"cartodb_id":108,"name":"Islip Village","addresslines":"455 Main St,Islip, NY 11751","hours_open_per_week":110,"gc_status_rel":0.95,"has_lu":1,"has_cl":0,"has_wa":1,"has_vs":1,"zipcode":11751,"storenumber":"7651-39320","revenue":1429194.4215496338,"carto_geocode_hash":"96f90f833bb6d87920852ecc2046a461"}},{"type":"Feature","geometry":{"type":"Point","coordinates":[-73.20225,40.77285]},"properties":{"cartodb_id":109,"name":"Target Central Islip T-2102","addresslines":"160 N Research Pl,Central Islip, NY 11722","hours_open_per_week":90,"gc_status_rel":0.99,"has_lu":0,"has_cl":0,"has_wa":0,"has_vs":0,"zipcode":11722,"storenumber":"76582-96831","revenue":1108818.2806990193,"carto_geocode_hash":"a293223b1f950d597e4b9e3467ba45b7"}},{"type":"Feature","geometry":{"type":"Point","coordinates":[-73.2008,40.74212]},"properties":{"cartodb_id":110,"name":"East Islip-Sunrise Hwy.","addresslines":"2550 Sunrise Hwy.,East Islip, NY 11730","hours_open_per_week":125,"gc_status_rel":0.97,"has_lu":1,"has_cl":0,"has_wa":1,"has_vs":1,"zipcode":11730,"storenumber":"49606-270104","revenue":3855216.7607495626,"carto_geocode_hash":"f273e21c0537d227671c642d3bb4f650"}},{"type":"Feature","geometry":{"type":"Point","coordinates":[-73.19918,40.82847]},"properties":{"cartodb_id":111,"name":"Hauppauge - Route 111","addresslines":"513 Route 111,Hauppauge, NY 11788","hours_open_per_week":113.5,"gc_status_rel":0.95,"has_lu":1,"has_cl":0,"has_wa":1,"has_vs":1,"zipcode":11788,"storenumber":"7813-74601","revenue":2644061.417534325,"carto_geocode_hash":"707bb9bda304842f77cb16c6daf95dbe"}},{"type":"Feature","geometry":{"type":"Point","coordinates":[-73.42757,40.87138]},"properties":{"cartodb_id":112,"name":"Huntington","addresslines":"1 Wall Street,Huntington, NY 11743","hours_open_per_week":119.5,"gc_status_rel":0.95,"has_lu":1,"has_cl":0,"has_wa":1,"has_vs":1,"zipcode":11743,"storenumber":"855-2052","revenue":1049650.1322004271,"carto_geocode_hash":"0a654facb554c6858ddc5be8090b3c33"}},{"type":"Feature","geometry":{"type":"Point","coordinates":[-73.33075,40.89846]},"properties":{"cartodb_id":113,"name":"Northport Village","addresslines":"832A Fort Salonga Road,Northport, NY 11768","hours_open_per_week":114,"gc_status_rel":0.96,"has_lu":1,"has_cl":0,"has_wa":1,"has_vs":1,"zipcode":11768,"storenumber":"10283-100401","revenue":2175137.1677282983,"carto_geocode_hash":"24300e11d67274973ab97b75a85fb0be"}},{"type":"Feature","geometry":{"type":"Point","coordinates":[-73.19088,40.85535]},"properties":{"cartodb_id":114,"name":"Smithtown","addresslines":"1 Miller Place,Smithtown, NY 11787","hours_open_per_week":105,"gc_status_rel":0.94,"has_lu":1,"has_cl":0,"has_wa":1,"has_vs":1,"zipcode":11787,"storenumber":"7411-1582","revenue":3114064.598142592,"carto_geocode_hash":"aed626ced8cd4b1e33a03b853b998d5a"}},{"type":"Feature","geometry":{"type":"Point","coordinates":[-73.15991,40.81048]},"properties":{"cartodb_id":115,"name":"Islandia  NY","addresslines":"3701 Express Dr N, Islandia, NY 11749","hours_open_per_week":75,"gc_status_rel":0.97,"has_lu":0,"has_cl":0,"has_wa":0,"has_vs":0,"zipcode":11749,"storenumber":"23737-231984","revenue":2059460.743362249,"carto_geocode_hash":"4ce00cadce972a96d6f9417615084f54"}},{"type":"Feature","geometry":{"type":"Point","coordinates":[-73.13017,40.86513]},"properties":{"cartodb_id":116,"name":"Smith Haven Mall","addresslines":"528 Smith Haven Mall,Lake Grove, NY 11755","hours_open_per_week":98,"gc_status_rel":0.99,"has_lu":1,"has_cl":0,"has_wa":1,"has_vs":1,"zipcode":11755,"storenumber":"10046-98654","revenue":1558339.7727288562,"carto_geocode_hash":"926e3a5ea5c2ada1dbaceb135d84bb93"}},{"type":"Feature","geometry":{"type":"Point","coordinates":[-73.11948,40.87753]},"properties":{"cartodb_id":117,"name":"Stony Brook (347)","addresslines":"1320 Stony Brook Road,Stony Brook, NY 11790","hours_open_per_week":110.5,"gc_status_rel":0.99,"has_lu":1,"has_cl":0,"has_wa":1,"has_vs":1,"zipcode":11790,"storenumber":"7635-23767","revenue":1806326.7646711087,"carto_geocode_hash":"6698e6bbf9960d92b3604588e7d631b0"}},{"type":"Feature","geometry":{"type":"Point","coordinates":[-73.11368,40.90592]},"properties":{"cartodb_id":118,"name":"Stonybrook Library","addresslines":"STONYBOOK UNIVERSITY,Stony Brook, NY 11794","hours_open_per_week":94,"gc_status_rel":0.92,"has_lu":0,"has_cl":0,"has_wa":0,"has_vs":0,"zipcode":11794,"storenumber":"48925-257625","revenue":1790376.495036045,"carto_geocode_hash":"3eea0e726442e75c124752f784fc0e20"}},{"type":"Feature","geometry":{"type":"Point","coordinates":[-73.09949,40.88305]},"properties":{"cartodb_id":119,"name":"Target South Setauket T-1191","addresslines":"255 Pond Path,Centereach, NY 11720","hours_open_per_week":90,"gc_status_rel":0.95,"has_lu":0,"has_cl":0,"has_wa":1,"has_vs":0,"zipcode":11720,"storenumber":"15617-162705","revenue":2642051.3833762244,"carto_geocode_hash":"8350b8946efd7bbc5853cde5eded6b23"}},{"type":"Feature","geometry":{"type":"Point","coordinates":[-73.09758,40.78987]},"properties":{"cartodb_id":120,"name":"ISP - Islip Gate 4 SW Terminal","addresslines":"100 Arrival Ave,Ronkonkoma, NY 11779","hours_open_per_week":98,"gc_status_rel":0.95,"has_lu":1,"has_cl":0,"has_wa":0,"has_vs":0,"zipcode":11779,"storenumber":"75901-97856","revenue":2791136.8225504947,"carto_geocode_hash":"6cf198d8abd00786e99dd6a38908f402"}},{"type":"Feature","geometry":{"type":"Point","coordinates":[-73.13849,40.74888]},"properties":{"cartodb_id":121,"name":"Bohemia","addresslines":"4577 Sunrise Highway,Oakdale, NY 11716","hours_open_per_week":122.5,"gc_status_rel":0.92,"has_lu":1,"has_cl":0,"has_wa":1,"has_vs":1,"zipcode":11716,"storenumber":"7503-7287","revenue":2816455.1186110894,"carto_geocode_hash":"44f98f04136bc0b5a8d154d792820ebf"}},{"type":"Feature","geometry":{"type":"Point","coordinates":[-73.09806,40.78194]},"properties":{"cartodb_id":122,"name":"Bohemia- Veterans Mem Hwy","addresslines":"4180 Veterans Memorial Hwy,Bohemia, NY 11716","hours_open_per_week":102.5,"gc_status_rel":0.97,"has_lu":1,"has_cl":1,"has_wa":1,"has_vs":1,"zipcode":11716,"storenumber":"20136-203441","revenue":1377682.6864180008,"carto_geocode_hash":"d1d9f55d1e7c3699871bdaef4a867616"}},{"type":"Feature","geometry":{"type":"Point","coordinates":[-73.08114,40.8584]},"properties":{"cartodb_id":123,"name":"Centereach","addresslines":"1942 Middle Country Road,Centereach, NY 11720","hours_open_per_week":108,"gc_status_rel":0.97,"has_lu":1,"has_cl":0,"has_wa":1,"has_vs":1,"zipcode":11720,"storenumber":"7614-28547","revenue":2782265.188238884,"carto_geocode_hash":"5bda364ebc5e3ad91dc1928f8bba1b00"}},{"type":"Feature","geometry":{"type":"Point","coordinates":[-73.05285,40.84671]},"properties":{"cartodb_id":124,"name":"Aramark at Suffolk Comm College","addresslines":"533 College Rd,Selden, NY 11784","hours_open_per_week":118,"gc_status_rel":0.95,"has_lu":0,"has_cl":0,"has_wa":1,"has_vs":0,"zipcode":11784,"storenumber":"27179-246407","revenue":2389513.528381951,"carto_geocode_hash":"990882b6d4525a17525c7cd1ca2b1be9"}},{"type":"Feature","geometry":{"type":"Point","coordinates":[-73.0551,40.86309]},"properties":{"cartodb_id":125,"name":"Selden","addresslines":"1251 Middle Country Road,Selden, NY 11784","hours_open_per_week":122.5,"gc_status_rel":0.97,"has_lu":1,"has_cl":0,"has_wa":1,"has_vs":1,"zipcode":11784,"storenumber":"7528-14030","revenue":2184571.386409425,"carto_geocode_hash":"16f80975223a1449f4296e33c5028070"}},{"type":"Feature","geometry":{"type":"Point","coordinates":[-73.06767,40.76655]},"properties":{"cartodb_id":126,"name":"Target Sayville T-2847","addresslines":"5750 Sunrise Hwy,Sayville, NY 11782","hours_open_per_week":90,"gc_status_rel":0.95,"has_lu":0,"has_cl":0,"has_wa":1,"has_vs":0,"zipcode":11782,"storenumber":"23497-218704","revenue":2597032.87404352,"carto_geocode_hash":"c70bd8abc9440b9395d5fb16466c6fc5"}},{"type":"Feature","geometry":{"type":"Point","coordinates":[-73.02354,40.82731]},"properties":{"cartodb_id":127,"name":"Farmingville-North Ocean Ave.","addresslines":"2280 North Ocean Ave.,B,Farmingville, NY 11738","hours_open_per_week":110.5,"gc_status_rel":0.97,"has_lu":1,"has_cl":0,"has_wa":1,"has_vs":0,"zipcode":11738,"storenumber":"48613-264047","revenue":2040719.462479406,"carto_geocode_hash":"d66685110b4fcce7190b1870ff005cca"}},{"type":"Feature","geometry":{"type":"Point","coordinates":[-73.08337,40.73575]},"properties":{"cartodb_id":128,"name":"Sayville","addresslines":"59 Main Street,Sayville, NY 11782","hours_open_per_week":105,"gc_status_rel":0.95,"has_lu":1,"has_cl":0,"has_wa":1,"has_vs":1,"zipcode":11782,"storenumber":"7447-6426","revenue":1905278.315035664,"carto_geocode_hash":"1bb9b26ba53c3a5752a7aeecc5c2ca11"}},{"type":"Feature","geometry":{"type":"Point","coordinates":[-73.04788,40.74861]},"properties":{"cartodb_id":129,"name":"Bayport","addresslines":"911 Montauk Highway,Bayport, NY 11705","hours_open_per_week":100.5,"gc_status_rel":0.95,"has_lu":1,"has_cl":0,"has_wa":1,"has_vs":1,"zipcode":11705,"storenumber":"10284-100403","revenue":3021782.641440098,"carto_geocode_hash":"a3dc3b2ca42c9efed89eab035ce1a0f1"}},{"type":"Feature","geometry":{"type":"Point","coordinates":[-73.11203,40.93348]},"properties":{"cartodb_id":130,"name":"East Setauket","addresslines":"246 Route 25-A,Setauket, NY 11733","hours_open_per_week":107.5,"gc_status_rel":0.97,"has_lu":1,"has_cl":1,"has_wa":1,"has_vs":1,"zipcode":11733,"storenumber":"7432-2586","revenue":3207175.9284839975,"carto_geocode_hash":"e67c0d4a98b680fae82d5547e23a09dc"}},{"type":"Feature","geometry":{"type":"Point","coordinates":[-72.98895,40.8247]},"properties":{"cartodb_id":131,"name":"Target Medford T-1948","addresslines":"2975 Horseblock Rd,Medford, NY 11763","hours_open_per_week":84,"gc_status_rel":0.95,"has_lu":0,"has_cl":0,"has_wa":1,"has_vs":0,"zipcode":11763,"storenumber":"76412-95718","revenue":1959604.6645764087,"carto_geocode_hash":"655eac7e38e076fe3c30bbc305385f7b"}},{"type":"Feature","geometry":{"type":"Point","coordinates":[-73.01513,40.89143]},"properties":{"cartodb_id":132,"name":"Coram-Rte. 112","addresslines":"1710 Route 112,Coram, NY 11727","hours_open_per_week":108.5,"gc_status_rel":0.95,"has_lu":1,"has_cl":0,"has_wa":1,"has_vs":0,"zipcode":11727,"storenumber":"28920-251790","revenue":2792818.1858982053,"carto_geocode_hash":"11f94908a7b0341cbbe277a281341b91"}},{"type":"Feature","geometry":{"type":"Point","coordinates":[-73.06825,40.94576]},"properties":{"cartodb_id":133,"name":"Port Jefferson","addresslines":"201 Main Street,Unit C,Port Jefferson, NY 11777","hours_open_per_week":120,"gc_status_rel":0.97,"has_lu":1,"has_cl":1,"has_wa":1,"has_vs":1,"zipcode":11777,"storenumber":"7210-551","revenue":1532818.9430308696,"carto_geocode_hash":"a5b5d16ff03b2946fa7178623a5f873b"}},{"type":"Feature","geometry":{"type":"Point","coordinates":[-72.95494,40.80743]},"properties":{"cartodb_id":134,"name":"Stop & Shop-Medford #583","addresslines":"700-60 Patchogue Yaphank Rd,Medford, NY 11763","hours_open_per_week":105,"gc_status_rel":0.95,"has_lu":0,"has_cl":0,"has_wa":1,"has_vs":0,"zipcode":11763,"storenumber":"79377-97521","revenue":2855403.419120265,"carto_geocode_hash":"92e18b1fb7787b811521af9915afba56"}},{"type":"Feature","geometry":{"type":"Point","coordinates":[-72.98655,40.94323]},"properties":{"cartodb_id":135,"name":"Miller Place","addresslines":"385 Route 25 A,14,Miller Place, NY 11764","hours_open_per_week":115.5,"gc_status_rel":0.99,"has_lu":1,"has_cl":0,"has_wa":1,"has_vs":1,"zipcode":11764,"storenumber":"7844-81481","revenue":2882191.9386153533,"carto_geocode_hash":"e9dd2240945956c150a2e23e071c4d8d"}},{"type":"Feature","geometry":{"type":"Point","coordinates":[-72.71921,40.91943]},"properties":{"cartodb_id":136,"name":"Tanger Outlets Riverhead","addresslines":"1770 West Main Street, Suite 1400,Riverhead, NY 11901","hours_open_per_week":82,"gc_status_rel":0.97,"has_lu":1,"has_cl":0,"has_wa":1,"has_vs":1,"zipcode":11901,"storenumber":"10167-99943","revenue":1220818.4660277877,"carto_geocode_hash":"12876c084e9253a0d7fb41369054b615"}},{"type":"Feature","geometry":{"type":"Point","coordinates":[-72.70475,40.92408]},"properties":{"cartodb_id":137,"name":"Riverhead S/C - Cty Rd 58","addresslines":"1791 OLD COUNTRY RD RT 58,Riverhead, NY 11901","hours_open_per_week":121,"gc_status_rel":0.99,"has_lu":1,"has_cl":0,"has_wa":1,"has_vs":1,"zipcode":11901,"storenumber":"18624-187364","revenue":1823804.7894627184,"carto_geocode_hash":"7fe42acdf9284802a337bb3823a5ad03"}},{"type":"Feature","geometry":{"type":"Point","coordinates":[-72.67956,40.93325]},"properties":{"cartodb_id":138,"name":"Target Riverhead T-1818","addresslines":"1150 Old Country Rd,Riverhead, NY 11901","hours_open_per_week":86,"gc_status_rel":0.97,"has_lu":0,"has_cl":0,"has_wa":1,"has_vs":0,"zipcode":11901,"storenumber":"20877-208284","revenue":1102339.1947336106,"carto_geocode_hash":"f2b27907bf9f72ba33c5bdb35b69fd64"}},{"type":"Feature","geometry":{"type":"Point","coordinates":[-72.52492,40.87848]},"properties":{"cartodb_id":139,"name":"Hampton Bays","addresslines":"24 Montauk Highway,Hampton Bays, NY 11946","hours_open_per_week":112,"gc_status_rel":0.97,"has_lu":1,"has_cl":0,"has_wa":1,"has_vs":1,"zipcode":11946,"storenumber":"7718-59500","revenue":1190428.9820553765,"carto_geocode_hash":"051808cd59851ba77f0953ae9859ec07"}},{"type":"Feature","geometry":{"type":"Point","coordinates":[-72.53796,40.98589]},"properties":{"cartodb_id":140,"name":"Mattituck","addresslines":"10095 Main Road,Mattituck, NY 11952","hours_open_per_week":108.5,"gc_status_rel":0.95,"has_lu":1,"has_cl":0,"has_wa":1,"has_vs":0,"zipcode":11952,"storenumber":"13718-107982","revenue":1341297.7129485856,"carto_geocode_hash":"96c6a409103d69527c6f09d5d0f308a0"}},{"type":"Feature","geometry":{"type":"Point","coordinates":[-72.3017,40.93786]},"properties":{"cartodb_id":141,"name":"Bridgehampton Village","addresslines":"2488 Montauk Hwy,Bridgehampton, NY 11932","hours_open_per_week":112,"gc_status_rel":0.95,"has_lu":1,"has_cl":1,"has_wa":1,"has_vs":1,"zipcode":11932,"storenumber":"7406-1586","revenue":1869975.4080906368,"carto_geocode_hash":"bc302b74510146565377dce2c800714e"}},{"type":"Feature","geometry":{"type":"Point","coordinates":[-72.18625,40.96341]},"properties":{"cartodb_id":142,"name":"East Hampton Village","addresslines":"39 Main Street,East Hampton, NY 11937","hours_open_per_week":115.5,"gc_status_rel":0.97,"has_lu":1,"has_cl":1,"has_wa":1,"has_vs":1,"zipcode":11937,"storenumber":"7884-46539","revenue":2298357.4241143917,"carto_geocode_hash":"d7e4d4f3e6e9bed8e6f8a0912f3efbd8"}},{"type":"Feature","geometry":{"type":"Point","coordinates":[-73.91773,40.62506]},"properties":{"cartodb_id":143,"name":"Georgetowne Shopping Center","addresslines":"2177 Ralph Ave,Brooklyn, NY 11234","hours_open_per_week":106,"gc_status_rel":0.94,"has_lu":1,"has_cl":0,"has_wa":1,"has_vs":0,"zipcode":11234,"storenumber":"54804-288519","revenue":743729.5707822423,"carto_geocode_hash":"8bbee03a5d743def8e002428c640575a"}},{"type":"Feature","geometry":{"type":"Point","coordinates":[-73.5972,40.82092]},"properties":{"cartodb_id":144,"name":"LIU CW Post","addresslines":"720 Northern Blvd,Brookfield, NY 11548","hours_open_per_week":82.5,"gc_status_rel":0.91,"has_lu":0,"has_cl":0,"has_wa":0,"has_vs":0,"zipcode":11548,"storenumber":"15465-147769","revenue":1937443.3481854738,"carto_geocode_hash":"ea7cee4da9fa530a926e77bc57a5c41b"}},{"type":"Feature","geometry":{"type":"Point","coordinates":[-73.63127,40.86608]},"properties":{"cartodb_id":145,"name":"Glen Cove","addresslines":"5 School Street,Glen Cove, NY 11542","hours_open_per_week":112.5,"gc_status_rel":0.97,"has_lu":1,"has_cl":0,"has_wa":1,"has_vs":1,"zipcode":11542,"storenumber":"832-2026","revenue":586531.6339973779,"carto_geocode_hash":"1ff8cd772be0301dc66434169278505b"}},{"type":"Feature","geometry":{"type":"Point","coordinates":[-73.93648,40.62287]},"properties":{"cartodb_id":146,"name":"Flatbush Ave & Kings Hwy","addresslines":"1927 Flatbush Ave,Brooklyn, NY 11234","hours_open_per_week":108,"gc_status_rel":0.91,"has_lu":1,"has_cl":0,"has_wa":1,"has_vs":0,"zipcode":11234,"storenumber":"23591-231287","revenue":796300.7059918867,"carto_geocode_hash":"582676f6ad972b323480da3f08c3dacb"}},{"type":"Feature","geometry":{"type":"Point","coordinates":[-73.95746,40.67102]},"properties":{"cartodb_id":147,"name":"Franklin Ave & Eastern Pkwy","addresslines":"341 Eastern Pkwy,Brooklyn, NY 11238","hours_open_per_week":107.5,"gc_status_rel":0.91,"has_lu":1,"has_cl":0,"has_wa":1,"has_vs":0,"zipcode":11238,"storenumber":"23266-228865","revenue":365396.7814917128,"carto_geocode_hash":"9212e0e908d8c64d07c6a94827322397"}},{"type":"Feature","geometry":{"type":"Point","coordinates":[-73.94666,40.63093]},"properties":{"cartodb_id":148,"name":"Target Brooklyn College","addresslines":"2201 Nostrand Ave,Brooklyn, NY 11210","hours_open_per_week":90,"gc_status_rel":0.94,"has_lu":0,"has_cl":0,"has_wa":0,"has_vs":0,"zipcode":11210,"storenumber":"76878-100172","revenue":584694.9990608265,"carto_geocode_hash":"1c38774d6819111360977c630043ab6c"}},{"type":"Feature","geometry":{"type":"Point","coordinates":[-73.94872,40.63225]},"properties":{"cartodb_id":149,"name":"33-42 Hillel Place","addresslines":"33-42 Hillel Place,Brooklyn, NY 11210","hours_open_per_week":107.5,"gc_status_rel":0.91,"has_lu":1,"has_cl":0,"has_wa":1,"has_vs":0,"zipcode":11210,"storenumber":"9721-97945","revenue":695347.7932496096,"carto_geocode_hash":"a3214f6bb2679a54e03cd432cb9fcf81"}},{"type":"Feature","geometry":{"type":"Point","coordinates":[-73.92137,40.61039]},"properties":{"cartodb_id":150,"name":"Macy's-Kings Plaza #6","addresslines":"5400 Avenue U,Brooklyn, NY 11234","hours_open_per_week":75,"gc_status_rel":0.94,"has_lu":0,"has_cl":0,"has_wa":0,"has_vs":0,"zipcode":11234,"storenumber":"16153-155504","revenue":970944.8192702205,"carto_geocode_hash":"d340a5e68d0290057e7dfd3b83d80e5c"}},{"type":"Feature","geometry":{"type":"Point","coordinates":[-73.96266,40.68886]},"properties":{"cartodb_id":151,"name":"Lafayette Ave & Grand Ave","addresslines":"325 Lafayette,Brooklyn, NY 11205","hours_open_per_week":96,"gc_status_rel":0.81,"has_lu":1,"has_cl":0,"has_wa":1,"has_vs":0,"zipcode":11205,"storenumber":"54446-286216","revenue":276556.5714294095,"carto_geocode_hash":"547e674ec8d5b832cb6fab03bd7f66d9"}},{"type":"Feature","geometry":{"type":"Point","coordinates":[-73.97292,40.67748]},"properties":{"cartodb_id":152,"name":"164 Park Place","addresslines":"164 Park Place,Brooklyn, NY 11217","hours_open_per_week":96,"gc_status_rel":0.94,"has_lu":1,"has_cl":1,"has_wa":1,"has_vs":1,"zipcode":11217,"storenumber":"19554-200744","revenue":840598.0233780058,"carto_geocode_hash":"b3faab858a0dd4f903814f8e2b055c43"}},{"type":"Feature","geometry":{"type":"Point","coordinates":[-73.97764,40.67205]},"properties":{"cartodb_id":153,"name":"164 7th Avenue","addresslines":"166 7th Avenue,Brooklyn, NY 11215","hours_open_per_week":114.5,"gc_status_rel":0.94,"has_lu":1,"has_cl":0,"has_wa":1,"has_vs":1,"zipcode":11215,"storenumber":"7441-1994","revenue":964101.4706207402,"carto_geocode_hash":"1be5545b6915686fa6f410a46a4c198c"}},{"type":"Feature","geometry":{"type":"Point","coordinates":[-73.97604,40.68307]},"properties":{"cartodb_id":154,"name":"Barclays Center","addresslines":"620 Atlantic Avenue,Brooklyn, NY 11217","hours_open_per_week":79.5,"gc_status_rel":0.94,"has_lu":1,"has_cl":0,"has_wa":1,"has_vs":0,"zipcode":11217,"storenumber":"17727-179364","revenue":548952.6613034046,"carto_geocode_hash":"2415299e367b4ee71719c2432860de03"}},{"type":"Feature","geometry":{"type":"Point","coordinates":[-73.98181,40.66669]},"properties":{"cartodb_id":155,"name":"7th Ave and 9th St","addresslines":"444 Ninth St.,Brooklyn, NY 11215","hours_open_per_week":100,"gc_status_rel":0.94,"has_lu":1,"has_cl":0,"has_wa":1,"has_vs":0,"zipcode":11215,"storenumber":"29856-255547","revenue":1522065.733416267,"carto_geocode_hash":"c353e1b26b1a048231704bfa2682e563"}},{"type":"Feature","geometry":{"type":"Point","coordinates":[-73.97681,40.68451]},"properties":{"cartodb_id":156,"name":"Flatbush Ave Atlantic Terminal","addresslines":"139 Flatbush Ave,Brooklyn, NY 11217","hours_open_per_week":108.5,"gc_status_rel":0.94,"has_lu":1,"has_cl":0,"has_wa":1,"has_vs":0,"zipcode":11217,"storenumber":"7704-13119","revenue":1241594.548221278,"carto_geocode_hash":"06d7959866891be27346d502ad3041b8"}},{"type":"Feature","geometry":{"type":"Point","coordinates":[-73.98297,40.67695]},"properties":{"cartodb_id":157,"name":"4th Ave. & Union St.","addresslines":"225 4th Avenue,Brooklyn, NY 11215","hours_open_per_week":108.5,"gc_status_rel":0.94,"has_lu":1,"has_cl":0,"has_wa":1,"has_vs":0,"zipcode":11215,"storenumber":"29719-254988","revenue":1436600.8566364837,"carto_geocode_hash":"a7e9117d9df202241ef41806cd587d5c"}},{"type":"Feature","geometry":{"type":"Point","coordinates":[-73.95868,40.6089]},"properties":{"cartodb_id":158,"name":"1417 Kings Highway","addresslines":"1417 Kings Highway,Brooklyn, NY 11229","hours_open_per_week":114,"gc_status_rel":0.94,"has_lu":1,"has_cl":0,"has_wa":1,"has_vs":0,"zipcode":11229,"storenumber":"17224-171944","revenue":470048.2736449657,"carto_geocode_hash":"8d135bc63e8a50e2298241eca9128a6c"}},{"type":"Feature","geometry":{"type":"Point","coordinates":[-73.98071,40.68951]},"properties":{"cartodb_id":159,"name":"395 Flatbush Ave Extension","addresslines":"395 Flatbush Ave Extension,D,Brooklyn, NY 11201","hours_open_per_week":93,"gc_status_rel":0.97,"has_lu":1,"has_cl":0,"has_wa":1,"has_vs":0,"zipcode":11201,"storenumber":"21352-210984","revenue":467991.848900289,"carto_geocode_hash":"375248970bb12ca62721b696e873b672"}},{"type":"Feature","geometry":{"type":"Point","coordinates":[-73.98289,40.69972]},"properties":{"cartodb_id":160,"name":"Target Brooklyn T-2850","addresslines":"445 Gold St,Brooklyn, NY 11201","hours_open_per_week":98,"gc_status_rel":0.91,"has_lu":0,"has_cl":0,"has_wa":0,"has_vs":0,"zipcode":11201,"storenumber":"28114-237585","revenue":223128.9592926495,"carto_geocode_hash":"e599fc159f825fa3355b4213110a3a67"}},{"type":"Feature","geometry":{"type":"Point","coordinates":[-73.98978,40.66929]},"properties":{"cartodb_id":161,"name":"4th Ave. & 11th St.-Park Slope","addresslines":"476 4th Ave.,Brooklyn, NY 11215","hours_open_per_week":104,"gc_status_rel":0.94,"has_lu":1,"has_cl":0,"has_wa":1,"has_vs":0,"zipcode":11215,"storenumber":"48170-261809","revenue":795803.1919573473,"carto_geocode_hash":"7495f006dab1aea08a008297fb3bec09"}},{"type":"Feature","geometry":{"type":"Point","coordinates":[-73.98564,40.68918]},"properties":{"cartodb_id":162,"name":"Hoyt St & Schermerhorn St","addresslines":"45 Hoyt Street,D,Brooklyn, NY 11201","hours_open_per_week":104.5,"gc_status_rel":0.94,"has_lu":1,"has_cl":0,"has_wa":1,"has_vs":0,"zipcode":11201,"storenumber":"57601-291413","revenue":797056.084371003,"carto_geocode_hash":"85ce4ad4db4e34ee5b7d79a22d9a6abc"}},{"type":"Feature","geometry":{"type":"Point","coordinates":[-73.98452,40.6915]},"properties":{"cartodb_id":163,"name":"Lam Group @ Sheraton Brooklyn","addresslines":"228 Duffield st,Brooklyn, NY 11201","hours_open_per_week":95,"gc_status_rel":0.94,"has_lu":1,"has_cl":0,"has_wa":1,"has_vs":0,"zipcode":11201,"storenumber":"25334-232868","revenue":895584.3890620256,"carto_geocode_hash":"358304778c3caf505ea433b20516238d"}},{"type":"Feature","geometry":{"type":"Point","coordinates":[-73.96122,40.57796]},"properties":{"cartodb_id":164,"name":"607 Brighton Beach Ave","addresslines":"607 Brighton Beach Avenue,Brooklyn, NY 11235","hours_open_per_week":104,"gc_status_rel":0.97,"has_lu":1,"has_cl":1,"has_wa":1,"has_vs":1,"zipcode":11235,"storenumber":"3438-93385","revenue":613400.9009995428,"carto_geocode_hash":"b1bbfe2893914a350193969a682dc1f5"}},{"type":"Feature","geometry":{"type":"Point","coordinates":[-73.98978,40.61944]},"properties":{"cartodb_id":165,"name":"65th St & 18th Ave","addresslines":"6423 18th Avenue,Brooklyn, NY 11204","hours_open_per_week":115.5,"gc_status_rel":0.94,"has_lu":1,"has_cl":0,"has_wa":1,"has_vs":1,"zipcode":11204,"storenumber":"7921-91620","revenue":730680.3489464282,"carto_geocode_hash":"e47cf7b16d6c9b53c63e86a0418add1d"}},{"type":"Feature","geometry":{"type":"Point","coordinates":[-73.98544,40.58126]},"properties":{"cartodb_id":166,"name":"Cropsey Ave & Hart Place","addresslines":"3035 Cropsey Ave,Brooklyn, NY 11224","hours_open_per_week":84,"gc_status_rel":0.94,"has_lu":1,"has_cl":0,"has_wa":1,"has_vs":0,"zipcode":11224,"storenumber":"8131-96060","revenue":870243.4880461105,"carto_geocode_hash":"97f546475daf7b073df84b5b6eb76b47"}},{"type":"Feature","geometry":{"type":"Point","coordinates":[-73.99849,40.60509]},"properties":{"cartodb_id":167,"name":"1971 86th Street","addresslines":"1971 86th Street,Brooklyn, NY 11214","hours_open_per_week":106,"gc_status_rel":0.94,"has_lu":1,"has_cl":0,"has_wa":1,"has_vs":1,"zipcode":11214,"storenumber":"13983-114731","revenue":399417.25740405545,"carto_geocode_hash":"e038186a82f96ca8cff7cbf17168910e"}},{"type":"Feature","geometry":{"type":"Point","coordinates":[-74.00098,40.59321]},"properties":{"cartodb_id":168,"name":"Caesar's Bay Shopping Center","addresslines":"8973 Bay Parkway,Brooklyn, NY 11214","hours_open_per_week":122.5,"gc_status_rel":0.94,"has_lu":1,"has_cl":0,"has_wa":1,"has_vs":0,"zipcode":11214,"storenumber":"23267-228864","revenue":425281.34671111335,"carto_geocode_hash":"134c23973313802448365db6235783f9"}},{"type":"Feature","geometry":{"type":"Point","coordinates":[-74.02596,40.62107]},"properties":{"cartodb_id":169,"name":"514 86th St","addresslines":"514 86th Street,Brooklyn, NY 11209","hours_open_per_week":105,"gc_status_rel":0.94,"has_lu":1,"has_cl":0,"has_wa":1,"has_vs":1,"zipcode":11209,"storenumber":"11808-106389","revenue":202733.99889191272,"carto_geocode_hash":"3b909087e99903efbb1804b14e849049"}},{"type":"Feature","geometry":{"type":"Point","coordinates":[-74.0275,40.63202]},"properties":{"cartodb_id":170,"name":"Bay Ridge Pkwy & 3rd Ave","addresslines":"7419 3rd Avenue,Brooklyn, NY 11209","hours_open_per_week":106.5,"gc_status_rel":0.94,"has_lu":1,"has_cl":0,"has_wa":1,"has_vs":1,"zipcode":11209,"storenumber":"2864-92970","revenue":632694.8575085052,"carto_geocode_hash":"2f21749c02f73116892eb3b6fd5d5738"}},{"type":"Feature","geometry":{"type":"Point","coordinates":[-74.03313,40.61927]},"properties":{"cartodb_id":171,"name":"3rd Ave & 92nd St","addresslines":"9202 Third Avenue,Brooklyn, NY 11209","hours_open_per_week":114,"gc_status_rel":0.94,"has_lu":1,"has_cl":0,"has_wa":1,"has_vs":0,"zipcode":11209,"storenumber":"7646-27128","revenue":373885.7669174799,"carto_geocode_hash":"30352252cee5c6e71098a51515b1c58e"}},{"type":"Feature","geometry":{"type":"Point","coordinates":[-73.99097,40.68624]},"properties":{"cartodb_id":172,"name":"Smith St & Wyckoff St","addresslines":"164 Smith Street,Brooklyn, NY 11201","hours_open_per_week":98.5,"gc_status_rel":0.94,"has_lu":1,"has_cl":0,"has_wa":1,"has_vs":0,"zipcode":11201,"storenumber":"11807-106578","revenue":868646.2024597706,"carto_geocode_hash":"41da8876765c76584e1ec07968aed971"}},{"type":"Feature","geometry":{"type":"Point","coordinates":[-73.99261,40.68849]},"properties":{"cartodb_id":173,"name":"Court St & Dean St","addresslines":"167 Court Street,Brooklyn, NY 11201","hours_open_per_week":98,"gc_status_rel":0.94,"has_lu":1,"has_cl":0,"has_wa":1,"has_vs":0,"zipcode":11201,"storenumber":"7595-14074","revenue":758329.9484233421,"carto_geocode_hash":"1e416b7f7f58d35d658ca02af7fbb515"}},{"type":"Feature","geometry":{"type":"Point","coordinates":[-73.98284,40.69501]},"properties":{"cartodb_id":174,"name":"Gold St & Johnson Street","addresslines":"309 Gold St,Brooklyn, NY 11201","hours_open_per_week":96,"gc_status_rel":0.94,"has_lu":1,"has_cl":0,"has_wa":1,"has_vs":0,"zipcode":11201,"storenumber":"24401-237441","revenue":474077.63421998854,"carto_geocode_hash":"76792ad34b7fc90277af23f4876b6672"}},{"type":"Feature","geometry":{"type":"Point","coordinates":[-73.98611,40.69434]},"properties":{"cartodb_id":175,"name":"6 Metro Tech at Jay Street","addresslines":"6 Metro Tech,Brooklyn, NY 11201","hours_open_per_week":103,"gc_status_rel":0.92,"has_lu":1,"has_cl":0,"has_wa":1,"has_vs":0,"zipcode":11201,"storenumber":"11809-106577","revenue":423354.2164662925,"carto_geocode_hash":"23b78dc190340ae94747ac67bec53195"}},{"type":"Feature","geometry":{"type":"Point","coordinates":[-73.99126,40.69245]},"properties":{"cartodb_id":176,"name":"Court St & Joralemon","addresslines":"50 Court Street,Brooklyn, NY 11201","hours_open_per_week":107.5,"gc_status_rel":0.94,"has_lu":1,"has_cl":0,"has_wa":1,"has_vs":0,"zipcode":11201,"storenumber":"7358-1369","revenue":871644.4382332956,"carto_geocode_hash":"7663a636bf5ba72f85b623a0c9465608"}},{"type":"Feature","geometry":{"type":"Point","coordinates":[-73.99402,40.69453]},"properties":{"cartodb_id":177,"name":"134 Montague Street","addresslines":"134 Montague Street,Brooklyn, NY 11201","hours_open_per_week":107,"gc_status_rel":0.94,"has_lu":1,"has_cl":0,"has_wa":1,"has_vs":1,"zipcode":11201,"storenumber":"844-169565","revenue":530045.949830665,"carto_geocode_hash":"6eef2628d3c34b6d0b6a865d8b112bfe"}}]}